{"type":"FeatureCollection", "features": [
{"type":"Feature","geometry":{"type":"Point","coordinates":[120.44420586,31.92189593]},"properties":{"gml_id":"layer_shopping_plaza_pt.79337","Name":"利群超市","pyname":"lqcs","kind":"2200","zipcode":"","telephone":"0512-56309327","display_x":"120.44887","display_y":"31.92006","side":"R","address":"塍西路"}},
{"type":"Feature","geometry":{"type":"Point","coordinates":[120.50003502,31.1663367]},"properties":{"gml_id":"layer_shopping_plaza_pt.79338","Name":"鑫鹏百货店","pyname":"xpbhd","kind":"2200","zipcode":"","telephone":"0512-66539765","display_x":"120.50444","display_y":"31.16427","side":"R","address":"联东路8号"}},
{"type":"Feature","geometry":{"type":"Point","coordinates":[120.74064588,31.64579708]},"properties":{"gml_id":"layer_shopping_plaza_pt.79340","Name":"华联商厦","pyname":"hlss","kind":"2200","zipcode":"","telephone":"0512-52712008","display_x":"120.74503","display_y":"31.64385","side":"R","address":"方塔街68号"}},
{"type":"Feature","geometry":{"type":"Point","coordinates":[120.55570722,31.81693154]},"properties":{"gml_id":"layer_shopping_plaza_pt.79344","Name":"顺兴商店","pyname":"sxsd","kind":"2200","zipcode":"","telephone":"","display_x":"120.55998","display_y":"31.81483","side":"L","address":"镇中东路"}},
{"type":"Feature","geometry":{"type":"Point","coordinates":[120.65602086,31.35054659]},"properties":{"gml_id":"layer_shopping_plaza_pt.79347","Name":"娄葑北区商业中心","pyname":"lfbqsyzx","kind":"2200","zipcode":"","telephone":"","display_x":"120.66027","display_y":"31.34845","side":"L","address":"和顺路24号"}},
{"type":"Feature","geometry":{"type":"Point","coordinates":[120.70281438,31.35891285]},"properties":{"gml_id":"layer_shopping_plaza_pt.79348","Name":"青剑湖商业中心","pyname":"qjhsyzx","kind":"2200","zipcode":"","telephone":"","display_x":"120.70714","display_y":"31.35689","side":"L","address":"唯和路35号"}},
{"type":"Feature","geometry":{"type":"Point","coordinates":[121.13894574,31.46678537]},"properties":{"gml_id":"layer_shopping_plaza_pt.79354","Name":"太仓宝龙城市广场","pyname":"tcblcsgc","kind":"2200","zipcode":"","telephone":"0512-53117001","display_x":"121.14355","display_y":"31.46499","side":"L","address":"上海东路288号"}},
{"type":"Feature","geometry":{"type":"Point","coordinates":[121.13857512,31.46321507]},"properties":{"gml_id":"layer_shopping_plaza_pt.79355","Name":"东盛·商业广场","pyname":"dssygc","kind":"2200","zipcode":"","telephone":"","display_x":"121.14318","display_y":"31.46142","side":"N","address":"上海东路世二园北门附近"}},
{"type":"Feature","geometry":{"type":"Point","coordinates":[120.73487148,31.28844276]},"properties":{"gml_id":"layer_shopping_plaza_pt.79358","Name":"莲花商业街","pyname":"lhsyj","kind":"2200","zipcode":"215000","telephone":"","display_x":"120.73923","display_y":"31.28643","side":"N","address":""}},
{"type":"Feature","geometry":{"type":"Point","coordinates":[120.70686168,31.31947071]},"properties":{"gml_id":"layer_shopping_plaza_pt.79362","Name":"现代休闲广场","pyname":"xdxxgc","kind":"2200","zipcode":"215000","telephone":"0512-66607998","display_x":"120.71119","display_y":"31.31744","side":"R","address":"右岸街"}},
{"type":"Feature","geometry":{"type":"Point","coordinates":[120.95255052,31.37768861]},"properties":{"gml_id":"layer_shopping_plaza_pt.79363","Name":"昆山商厦西门","pyname":"ksssxm","kind":"2200","zipcode":"","telephone":"","display_x":"120.95679","display_y":"31.37559","side":"L","address":"正阳路"}},
{"type":"Feature","geometry":{"type":"Point","coordinates":[120.63882168,31.16450997]},"properties":{"gml_id":"layer_shopping_plaza_pt.79367","Name":"好玛士商场","pyname":"hmssc","kind":"2200","zipcode":"","telephone":"","display_x":"120.64302","display_y":"31.1623","side":"R","address":"永康路247号"}}
]}